,Unnamed: 0,FIPS,ISO2,ISO3,UN,NAME,AREA,POP2005,REGION,SUBREGION,LON,LAT,Country,Code,Year,PERSONAL
0,0,AC,AG,ATG,28,Antigua and Barbuda,44,0.083039,19,29,-61.783,17.078,,,,
1,1,AG,DZ,DZA,12,Algeria,238174,32.854159,2,15,2.6320000000000000,28.163,Algeria,DZA,2015.0,5.340853691
2,2,AJ,AZ,AZE,31,Azerbaijan,8260,8.352021,142,145,47.395,40.43,Azerbaijan,AZE,2015.0,5.146774769000000
3,3,AL,AL,ALB,8,Albania,2740,3.153731,150,39,20.068000000000000,41.143,Albania,ALB,2015.0,4.6066508290000000
4,4,AM,AM,ARM,51,Armenia,2820,3.017661,142,145,44.563,40.534,Armenia,ARM,2015.0,4.34831953
5,5,AO,AO,AGO,24,Angola,124670,16.095214000000000,2,17,17.544,-12.296,,,,
6,6,AQ,AS,ASM,16,American Samoa,20,0.064051,9,61,-170.73,-14.318,,,,
7,7,AR,AR,ARG,32,Argentina,273669,38.747148000000000,19,5,-65.167,-35.377000000000000,Argentina,ARG,2015.0,6.69713068
8,8,AS,AU,AUS,36,Australia,768230,20.310208,9,53,136.189,-24.973000000000000,Australia,AUS,2015.0,7.309060574
9,9,BA,BH,BHR,48,Bahrain,71,0.724788,142,145,50.562,26.019000000000000,Bahrain,BHR,2015.0,6.00737524
10,10,BB,BB,BRB,52,Barbados,43,0.291933,19,29,-59.559,13.153000000000000,,,,
11,11,BD,BM,BMU,60,Bermuda,5,0.064174,19,21,-64.709,32.336,,,,
12,12,BF,BS,BHS,44,Bahamas,1001,0.323295,19,29,-78.014,24.628,,,,
13,13,BG,BD,BGD,50,Bangladesh,13017,15.328112000000000,142,34,89.941,24.218000000000000,Bangladesh,BGD,2015.0,4.633473873
14,14,BH,BZ,BLZ,84,Belize,2281,0.275546,19,13,-88.602,17.219,,,,
15,15,BK,BA,BIH,70,Bosnia and Herzegovina,5120,3.9152380000000000,150,39,17.786000000000000,44.169,Bosnia and Herzegovina,BIH,2015.0,5.1171779630000000
16,16,BL,BO,BOL,68,Bolivia,108438,9.182015,19,5,-64.671,-16.715,Bolivia,BOL,2015.0,5.834329128000000
17,17,BM,MM,MMR,104,Burma,65755,47.967266000000000,142,35,96.041,21.718000000000000,Myanmar,MMR,2015.0,4.2238464360000000
18,18,BN,BJ,BEN,204,Benin,11062,8.490301000000000,2,11,2.469,10.541000000000000,Benin,BEN,2015.0,3.6246643070000000
19,19,BP,SB,SLB,90,Solomon Islands,2799,0.472419,9,54,160.109,-9.611,,,,
20,20,BR,BR,BRA,76,Brazil,845942,186.830759,19,5,-53.089,-10.772,Brazil,BRA,2015.0,6.546896935
21,21,BU,BG,BGR,100,Bulgaria,11063,7.744591000000000,150,151,25.231000000000000,42.761,Bulgaria,BGR,2015.0,4.865401268
22,22,BX,BN,BRN,96,Brunei Darussalam,527,0.37383100000000000,142,35,114.59100000000000,4.468,,,,
23,23,CA,CA,CAN,124,Canada,909351,32.270507,19,21,-109.43300000000000,59.081,Canada,CAN,2015.0,7.412772655
24,24,CB,KH,KHM,116,Cambodia,17652,13.955507,142,35,104.564,12.714,Cambodia,KHM,2015.0,4.162164688
25,25,CE,LK,LKA,144,Sri Lanka,6463,19.120763,142,34,80.704,7.612,Sri Lanka,LKA,2015.0,4.611606598
26,26,CF,CG,COG,178,Congo,34150,3.6098510000000000,2,17,15.986000000000000,-0.055,Congo,COG,2015.0,4.6908302310000000
27,27,CG,CD,COD,180,Democratic Republic of the Congo,226705,58.740547,2,17,23.654,-2.8760000000000000,Democratic Republic of Congo,COD,2015.0,3.9027416710000000
28,28,BY,BI,BDI,108,Burundi,2568,7.858791,2,14,29.887000000000000,-3.3560000000000000,,,,
29,29,CH,CN,CHN,156,China,932743,1312.978855,142,30,106.514,33.42,China,CHN,2015.0,5.303877831
30,30,AF,AF,AFG,4,Afghanistan,65209,25.067407,142,34,65.21600000000000,33.677,Afghanistan,AFG,2015.0,3.982854605
31,31,BT,BT,BTN,64,Bhutan,4700,0.637013,142,34,90.429,27.415,,,,
32,32,CI,CL,CHL,152,Chile,74880,16.295102,19,5,-69.433,-23.389,Chile,CHL,2015.0,6.532749653
33,33,CJ,KY,CYM,136,Cayman Islands,26,0.045591,19,29,-81.19800000000000,19.314,,,,
34,34,CM,CM,CMR,120,Cameroon,46540,17.795149,2,17,12.277000000000000,5.133000000000000,Cameroon,CMR,2015.0,5.037964821
35,35,CD,TD,TCD,148,Chad,125920,10.145609,2,17,18.665,15.361000000000000,Chad,TCD,2015.0,4.3226752280000000
36,36,CN,KM,COM,174,Comoros,223,0.797902,2,14,43.337000000000000,-11.758,,,,
37,37,CO,CO,COL,170,Colombia,103870,4.494579,19,5,-73.07600000000000,3.9,Colombia,COL,2015.0,6.387571812000000
38,38,CS,CR,CRI,188,Costa Rica,5106,4.327228,19,13,-83.946,9.971,Costa Rica,CRI,2015.0,6.8540043830000000
39,39,CT,CF,CAF,140,Central African Republic,62298,4.191429,2,17,20.483,6.571000000000000,,,,
40,40,CU,CU,CUB,192,Cuba,10982,11.259905,19,29,-77.781,21.297000000000000,,,,
41,41,CV,CV,CPV,132,Cape Verde,403,0.506807,2,11,-23.634,15.071,,,,
42,42,CW,CK,COK,184,Cook Islands,24,0.013984,9,61,-159.782,-21.219,,,,
43,43,CY,CY,CYP,196,Cyprus,924,0.8363210000000000,142,145,33.219,35.043,Cyprus,CYP,2015.0,5.439161301
44,44,DA,DK,DNK,208,Denmark,4243,5.416945,150,154,9.264,56.058,Denmark,DNK,2015.0,7.5144248010000000
45,45,DJ,DJ,DJI,262,Djibouti,2318,0.8042060000000000,2,14,42.516000000000000,11.9,,,,
46,46,DO,DM,DMA,212,Dominica,75,0.067827,19,29,-61.356,15.475,,,,
47,47,DR,DO,DOM,214,Dominican Republic,4838,9.469601000000000,19,29,-70.729,19.015,Dominican Republic,DOM,2015.0,5.061862469000000
48,48,EC,EC,ECU,218,Ecuador,27684,13.060993,19,5,-78.497,-1.385,Ecuador,ECU,2015.0,5.964075089
49,49,EG,EG,EGY,818,Egypt,99545,72.849793,2,15,29.872,26.494,Egypt,EGY,2015.0,4.7625384330000000
50,50,EI,IE,IRL,372,Ireland,6889,4.143294,150,154,-8.152000000000000,53.177,Ireland,IRL,2015.0,6.830125332000000
51,51,EK,GQ,GNQ,226,Equatorial Guinea,2805,0.484098,2,17,10.488,1.607,,,,
52,52,EN,EE,EST,233,Estonia,4239,1.3443120000000000,150,154,25.793000000000000,58.674,Estonia,EST,2015.0,5.628908634
53,53,ER,ER,ERI,232,Eritrea,10100,4.526722,2,14,38.219,16.045,,,,
54,54,ES,SV,SLV,222,El Salvador,2072,6.668356,19,13,-88.866,13.736000000000000,El Salvador,SLV,2015.0,6.018496037
55,55,ET,ET,ETH,231,Ethiopia,100000,78.985857,2,14,39.616,8.626,Ethiopia,ETH,2015.0,4.573154926
56,56,AU,AT,AUT,40,Austria,8245,8.291979,150,155,14.912,47.683,Austria,AUT,2015.0,7.07644701
57,57,EZ,CZ,CZE,203,Czech Republic,7727,10.191762000000000,150,151,15.338,49.743,Czech Republic,CZE,2015.0,6.608017445
58,58,FG,GF,GUF,254,French Guiana,8815,0.192099,19,5,-53.24100000000000,3.924,,,,
59,59,FI,FI,FIN,246,Finland,30459,5.246004,150,154,26.272,64.50400000000000,Finland,FIN,2015.0,7.447925568
60,60,FJ,FJ,FJI,242,Fiji,1827,0.828046,9,54,177.97400000000000,-17.819000000000000,,,,
61,61,FK,FK,FLK,238,Falkland Islands (Malvinas),1217,0.002975,19,5,-58.694000000000000,-51.665,,,,
62,62,FM,FM,FSM,583,"Micronesia, Federated States of",70,0.11005800000000000,9,57,158.235,6.883000000000000,,,,
63,63,FP,PF,PYF,258,French Polynesia,366,0.255632,9,61,-149.46200000000000,-17.626000000000000,,,,
64,64,FR,FR,FRA,250,France,55010,60.99054400000000,150,155,2.55,46.565,France,FRA,2015.0,6.357625008000000
65,65,GA,GM,GMB,270,Gambia,1000,1.617029,2,11,-15.386,13.453,,,,
66,66,GB,GA,GAB,266,Gabon,25767,1.290693,2,17,11.797,-0.591,Gabon,GAB,2015.0,4.66101265
67,67,GG,GE,GEO,268,Georgia,6949,4.473409000000000,142,145,43.518,42.176,Georgia,GEO,2015.0,4.1219406130000000
68,68,GH,GH,GHA,288,Ghana,22754,2.253501,2,11,-1.207,7.96,Ghana,GHA,2015.0,3.9859161380000000
69,69,GJ,GD,GRD,308,Grenada,34,0.10523700000000000,19,29,-61.678000000000000,12.118,,,,
70,70,GL,GL,GRL,304,Greenland,41045,0.057475,19,21,-41.391000000000000,74.719,,,,
71,71,GM,DE,DEU,276,Germany,34895,82.652369,150,155,9.851,51.11,Germany,DEU,2015.0,7.037137508
72,72,GQ,GU,GUM,316,Guam,55,0.016857,9,57,144.707,13.385,,,,
73,73,GR,GR,GRC,300,Greece,12890,11.099737,150,39,21.766,39.666,Greece,GRC,2015.0,5.622519016
74,74,GT,GT,GTM,320,Guatemala,10843,12.709564,19,13,-90.398,15.256000000000000,Guatemala,GTM,2015.0,6.464986801
75,75,GV,GN,GIN,324,Guinea,24572,9.002656,2,11,-10.942,10.439,Guinea,GIN,2015.0,3.504693508
76,76,GY,GY,GUY,328,Guyana,19685,0.739472,19,5,-58.974,4.792,,,,
77,77,HA,HT,HTI,332,Haiti,2756,9.296291,19,29,-72.278,19.142,Haiti,HTI,2015.0,3.569762468
78,78,HO,HN,HND,340,Honduras,11189,0.683411,19,13,-86.863,14.819,Honduras,HND,2015.0,4.845436573
79,79,HR,HR,HRV,191,Croatia,5592,0.45514900000000000,150,39,16.693000000000000,45.723,Croatia,HRV,2015.0,5.205438137
80,80,HU,HU,HUN,348,Hungary,9210,10.086387,150,151,19.134,47.07,Hungary,HUN,2015.0,5.34438324
81,81,IC,IS,ISL,352,Iceland,10025,0.295732,150,154,-18.48,64.764,Iceland,ISL,2015.0,7.498070717
82,82,IN,IN,IND,356,India,297319,1134.403141,142,34,78.5,21.0,India,IND,2015.0,4.342079163
83,83,IR,IR,IRN,364,Iran (Islamic Republic of),163620,69.42060700000000,142,34,54.301,32.565,Iran,IRN,2015.0,4.749955654
84,84,IS,IL,ISR,376,Israel,2171,6.692037000000000,142,145,34.851,31.026,Israel,ISR,2015.0,7.07941103
85,85,IT,IT,ITA,380,Italy,29411,5.864636,150,39,12.8,42.7,Italy,ITA,2015.0,5.847683907
86,86,IV,CI,CIV,384,Cote d'Ivoire,31800,18.584701000000000,2,11,-5.556,7.632000000000000,Cote d'Ivoire,CIV,2015.0,4.445038795
87,87,IZ,IQ,IRQ,368,Iraq,43737,27.995984000000000,142,145,43.772,33.048,Iraq,IRQ,2015.0,4.493377209
88,88,JA,JP,JPN,392,Japan,36450,127.89674,142,30,139.06800000000000,36.491,Japan,JPN,2015.0,5.879684448
89,89,JM,JM,JAM,388,Jamaica,1083,2.6824690000000000,19,29,-77.32,18.151,,,,
90,90,JO,JO,JOR,400,Jordan,8824,5.544066,142,145,36.319,30.703000000000000,Jordan,JOR,2015.0,5.404593468
91,91,KE,KE,KEN,404,Kenya,56914,35.598952000000000,2,14,37.858000000000000,0.53,Kenya,KEN,2015.0,4.357617855
92,92,KG,KG,KGZ,417,Kyrgyzstan,19180,5.203547,142,143,74.555,41.465,Kyrgyzstan,KGZ,2015.0,4.9053759570000000
93,93,KN,KP,PRK,408,"Korea, Democratic People's Republic of",12041,23.615611000000000,142,30,126.45100000000000,39.778,,,,
94,94,KR,KI,KIR,296,Kiribati,73,0.092003,9,57,175.03600000000000,-1.508,,,,
95,95,KS,KR,KOR,410,"Korea, Republic of",9873,47.869837,142,30,128.10300000000000,36.504,South Korea,KOR,2015.0,5.780211449000000
96,96,KU,KW,KWT,414,Kuwait,1782,0.0027,142,145,47.376000000000000,29.476,Kuwait,KWT,2015.0,6.1460318570000000
97,97,KZ,KZ,KAZ,398,Kazakhstan,269970,15.210609,142,143,67.301,48.16,Kazakhstan,KAZ,2015.0,5.949995041
98,98,LA,LA,LAO,418,Lao People's Democratic Republic,23080,0.566391,142,35,102.471,19.905,,,,
99,99,LE,LB,LBN,422,Lebanon,1023,0.401074,142,145,35.888000000000000,33.92,Lebanon,LBN,2015.0,5.171971321
100,100,LG,LV,LVA,428,Latvia,6205,2.301793,150,154,25.641,56.858000000000000,Latvia,LVA,2015.0,5.880597591
101,101,BO,BY,BLR,112,Belarus,20748,9.795287,150,151,28.047000000000000,53.54,Belarus,BLR,2015.0,5.718907833000000
102,102,LH,LT,LTU,440,Lithuania,6268,3.4250770000000000,150,154,23.897,55.336000000000000,Lithuania,LTU,2015.0,5.711378098
103,103,LI,LR,LBR,430,Liberia,9632,3.441796,2,11,-9.657,6.682,Liberia,LBR,2015.0,2.701591253
104,104,LO,SK,SVK,703,Slovakia,4808,5.386995,150,151,19.491,48.707,Slovakia,SVK,2015.0,6.162004471
105,105,LS,LI,LIE,438,Liechtenstein,16,0.034598000000000000,150,155,9.555,47.153,,,,
106,106,LY,LY,LBY,434,Libyan Arab Jamahiriya,175954,5.918217000000000,2,15,18.023,27.044,Libya,LBY,2015.0,5.615404606
107,107,MA,MG,MDG,450,Madagascar,58154,18.642586000000000,2,14,46.706,-19.374000000000000,Madagascar,MDG,2015.0,3.592514038
108,108,MB,MQ,MTQ,474,Martinique,106,0.395896,19,29,-61.021,14.653000000000000,,,,
109,109,MG,MN,MNG,496,Mongolia,156650,2.580704,142,30,102.876,46.056000000000000,Mongolia,MNG,2015.0,4.982719898
110,110,MH,MS,MSR,500,Montserrat,10,0.005628,19,29,-62.187,16.736,,,,
111,111,MK,MK,MKD,807,The former Yugoslav Republic of Macedonia,2543,2.033655,150,39,21.698,41.6,Macedonia,MKD,2015.0,4.975589752
112,112,ML,ML,MLI,466,Mali,122019,1.161109,2,11,-3.5240000000000000,17.35,Mali,MLI,2015.0,4.582098484000000
113,113,MO,MA,MAR,504,Morocco,44630,30.494991,2,15,-5.758000000000000,32.706000000000000,Morocco,MAR,2015.0,5.163156986000000
114,114,MP,MU,MUS,480,Mauritius,203,1.2411730000000000,2,14,57.583,-20.255,Mauritius,MUS,2015.0,5.610003471000000
115,115,MR,MR,MRT,478,Mauritania,102522,2.963105,2,11,-10.332,20.26,Mauritania,MRT,2015.0,3.922664165
116,116,MT,MT,MLT,470,Malta,32,0.402617,150,39,14.442,35.89,Malta,MLT,2015.0,6.61339426
117,117,MU,OM,OMN,512,Oman,30950,2.5070420000000000,142,145,57.407,21.656,,,,
118,118,MV,MV,MDV,462,Maldives,30,0.295297,142,34,72.92,3.548,,,,
119,119,MX,MX,MEX,484,Mexico,190869,104.26639200000000,19,13,-102.535,23.951,Mexico,MEX,2015.0,6.236287117000000
120,120,MY,MY,MYS,458,Malaysia,32855,25.652985,142,35,102.195,4.2010000000000000,Malaysia,MYS,2015.0,6.3221211430000000
121,121,MZ,MZ,MOZ,508,Mozambique,78409,20.532675,2,14,37.923,-14.422,Mozambique,MOZ,2015.0,4.549767494
122,122,MI,MW,MWI,454,Malawi,9408,13.226091,2,14,33.808,-13.4,Malawi,MWI,2015.0,3.86763835
123,123,NC,NC,NCL,540,New Caledonia,1828,0.234185,9,54,165.447,-21.359,,,,
124,124,NE,NU,NIU,570,Niue,26,0.001632,9,61,-169.86900000000000,-19.052,,,,
125,125,NG,NE,NER,562,Niger,126670,1.326419,2,11,9.398,17.426,Niger,NER,2015.0,3.6714537140000000
126,126,AA,AW,ABW,533,Aruba,0,0.102897,19,29,-69.977,12.517000000000000,,,,
127,127,AV,AI,AIA,660,Anguilla,0,0.012256,19,29,-63.032,18.237000000000000,,,,
128,128,BE,BE,BEL,56,Belgium,0,10.398049,150,155,4.664,50.643,Belgium,BEL,2015.0,6.904219151
129,129,HK,HK,HKG,344,Hong Kong,0,7.057418000000000,142,30,114.12900000000000,22.423000000000000,,,,
130,130,CQ,MP,MNP,580,Northern Mariana Islands,0,0.08025800000000000,9,57,145.623,15.005,,,,
131,131,FO,FO,FRO,234,Faroe Islands,0,0.048205,150,154,-6.864,62.05,,,,
132,132,AN,AD,AND,20,Andorra,0,0.073483,150,39,1.5760000000000000,42.549,,,,
133,133,GI,GI,GIB,292,Gibraltar,0,0.000291,150,39,-5.345,36.138000000000000,,,,
134,134,IM,IM,IMN,833,Isle of Man,0,0.07835700000000000,150,154,-4.527,54.229,,,,
135,135,LU,LU,LUX,442,Luxembourg,0,0.456613,150,155,6.088000000000000,49.771,Luxembourg,LUX,2015.0,6.701571465
136,136,MC,MO,MAC,446,Macau,0,0.047309,142,30,113.545,22.2,,,,
137,137,MN,MC,MCO,492,Monaco,0,0.000325,150,155,7.412000000000000,43.75,,,,
138,138,,PS,PSE,275,Palestine,0,3.7620050000000000,142,145,35.278,32.037,Palestine,PSE,2015.0,4.695239067
139,139,MJ,ME,MNE,499,Montenegro,0,0.607969,150,39,19.254,42.792,Montenegro,MNE,2015.0,5.124921322
140,140,MF,YT,MYT,175,Mayotte,0,,2,14,45.155,-12.777000000000000,,,,
141,141,,AX,ALA,248,Ã…land Islands,0,,150,154,19.952,60.198,,,,
142,142,NF,NF,NFK,574,Norfolk Island,0,,9,53,167.953,-29.037,,,,
143,143,CK,CC,CCK,166,Cocos (Keeling) Islands,1,,0,0,96.839,-12.173,,,,
144,144,AY,AQ,ATA,10,Antarctica,0,,0,0,21.304000000000000,-80.446,,,,
145,145,BV,BV,BVT,74,Bouvet Island,0,,0,0,3.412,-54.422,,,,
146,146,FS,TF,ATF,260,French Southern and Antarctic Lands,0,,0,0,69.117,-49.302,,,,
147,147,HM,HM,HMD,334,Heard Island and McDonald Islands,0,,0,0,73.507,-53.111000000000000,,,,
148,148,IO,IO,IOT,86,British Indian Ocean Territory,0,,0,0,72.416,-7.335,,,,
149,149,KT,CX,CXR,162,Christmas Island,0,,0,0,105.704,-10.444,,,,
150,150,,UM,UMI,581,United States Minor Outlying Islands,0,,0,0,-160.02700000000000,-0.385,,,,
151,151,NH,VU,VUT,548,Vanuatu,1219,0.21536600000000000,9,54,166.899,-15.376,,,,
152,152,NI,NG,NGA,566,Nigeria,91077,141.356083,2,11,8.105,9.594,Nigeria,NGA,2015.0,4.932914734
153,153,NL,NL,NLD,528,Netherlands,3388,1.6327690000000000,150,155,5.389000000000000,52.077,Netherlands,NLD,2015.0,7.324437141000000
154,154,NO,NO,NOR,578,Norway,30625,4.638836,150,154,8.74,61.152,Norway,NOR,2015.0,7.603433609
155,155,NP,NP,NPL,524,Nepal,14300,27.093656,142,34,83.939,28.253,Nepal,NPL,2015.0,4.812436581
156,156,NR,NR,NRU,520,Nauru,2,0.010111,9,57,166.93,-0.522,,,,
157,157,NS,SR,SUR,740,Suriname,15600,0.45246800000000000,19,5,-55.912,4.127,,,,
158,158,NU,NI,NIC,558,Nicaragua,12140,5.462539,19,13,-85.03400000000000,12.84,Nicaragua,NIC,2015.0,5.924112797
159,159,NZ,NZ,NZL,554,New Zealand,26799,4.097112,9,53,172.235,-42.63400000000000,New Zealand,NZL,2015.0,7.418120861
160,160,PA,PY,PRY,600,Paraguay,39730,5.904342,19,5,-58.391000000000000,-23.236,Paraguay,PRY,2015.0,5.559724331
161,161,PE,PE,PER,604,Peru,128000,27.274266000000000,19,5,-75.55200000000000,-9.326,Peru,PER,2015.0,5.577263355
162,162,PK,PK,PAK,586,Pakistan,77088,158.080591,142,34,69.38600000000000,29.967,Pakistan,PAK,2015.0,4.823194981
163,163,PL,PL,POL,616,Poland,30629,38.195558,150,151,19.401,52.125,Poland,POL,2015.0,6.007021904
164,164,PM,PA,PAN,591,Panama,7443,3.231502,19,13,-80.92,8.384,Panama,PAN,2015.0,6.605550289
165,165,PO,PT,PRT,620,Portugal,9150,10.528226,150,39,-8.058,40.309,Portugal,PRT,2015.0,5.080866337
166,166,PP,PG,PNG,598,Papua New Guinea,45286,6.069715,9,54,143.459,-5.949,,,,
167,167,PU,GW,GNB,624,Guinea-Bissau,2812,1.596929,2,11,-14.651,12.125,,,,
168,168,QA,QA,QAT,634,Qatar,1100,0.796186,142,145,51.191,25.316,,,,
169,169,RE,RE,REU,638,Reunion,250,0.785159,2,14,55.538000000000000,-21.122,,,,
170,170,RO,RO,ROU,642,Romania,22987,21.627557,150,151,24.969,45.844000000000000,Romania,ROU,2015.0,5.777491093000000
171,171,MD,MD,MDA,498,Republic of Moldova,3288,3.876661,150,151,28.599,47.193000000000000,Moldova,MDA,2015.0,6.0174722670000000
172,172,RP,PH,PHL,608,Philippines,29817,84.566163,142,35,122.46600000000000,11.118,Philippines,PHL,2015.0,5.547489166
173,173,RQ,PR,PRI,630,Puerto Rico,887,3.9467790000000000,19,29,-66.46600000000000,18.221,,,,
174,174,RS,RU,RUS,643,Russia,1638094,143.953092,150,151,96.689,61.988,Russia,RUS,2015.0,5.995538712
175,175,RW,RW,RWA,646,Rwanda,2467,9.233793000000000,2,14,29.917000000000000,-1.9980000000000000,Rwanda,RWA,2015.0,3.483108997
176,176,SA,SA,SAU,682,Saudi Arabia,214969,2.361236,142,145,44.585,24.023000000000000,Saudi Arabia,SAU,2015.0,6.3454918860000000
177,177,SC,KN,KNA,659,Saint Kitts and Nevis,36,0.049138,19,29,-62.769,17.34,,,,
178,178,SE,SC,SYC,690,Seychelles,46,0.08553200000000000,2,14,55.474,-4.647,,,,
179,179,SF,ZA,ZAF,710,South Africa,121447,47.938663,2,18,23.121,-30.558000000000000,South Africa,ZAF,2015.0,4.887325764
180,180,LT,LS,LSO,426,Lesotho,3035,1.9808310000000000,2,18,28.243000000000000,-29.581,,,,
181,181,BC,BW,BWA,72,Botswana,56673,1.835938,2,18,23.815,-22.182,Botswana,BWA,2015.0,3.761964798
182,182,SG,SN,SEN,686,Senegal,19253,1.177034,2,11,-14.881000000000000,15.013,Senegal,SEN,2015.0,4.61700058
183,183,SI,SI,SVN,705,Slovenia,2014,1.999425,150,39,14.827,46.124000000000000,Slovenia,SVN,2015.0,5.740642071
184,184,SL,SL,SLE,694,Sierra Leone,7162,5.586403,2,11,-11.792,8.56,Sierra Leone,SLE,2015.0,4.908617973
185,185,SN,SG,SGP,702,Singapore,67,4.327468,142,35,103.80800000000000,1.351,Singapore,SGP,2015.0,6.619524956
186,186,SO,SO,SOM,706,Somalia,62734,8.196395000000000,2,14,48.316,9.774,,,,
187,187,SP,ES,ESP,724,Spain,49904,43.397491000000000,150,39,-3.6490000000000000,40.227,Spain,ESP,2015.0,6.380663395
188,188,ST,LC,LCA,662,Saint Lucia,61,0.016124,19,29,-60.969000000000000,13.898,,,,
189,189,SU,SD,SDN,736,Sudan,237600,36.899747,2,15,30.05,13.832,,,,
190,190,SW,SE,SWE,752,Sweden,41033,9.038049,150,154,15.27,62.011,Sweden,SWE,2015.0,7.28892231
191,191,SY,SY,SYR,760,Syrian Arab Republic,18378,18.893881,142,145,38.506,35.013000000000000,,,,
192,192,SZ,CH,CHE,756,Switzerland,4000,7.424389,150,155,7.9080000000000000,46.861000000000000,Switzerland,CHE,2015.0,7.572136879000000
193,193,TD,TT,TTO,780,Trinidad and Tobago,513,1.3237220000000000,19,29,-61.253,10.468,,,,
194,194,TH,TH,THA,764,Thailand,51089,63.002911,142,35,100.844,15.7,Thailand,THA,2015.0,6.201762676
195,195,TI,TJ,TJK,762,Tajikistan,13996,6.550213000000000,142,143,69.42,38.665,Tajikistan,TJK,2015.0,5.124210835
196,196,TL,TK,TKL,772,Tokelau,1,0.001401,9,61,-171.85300000000000,-9.193,,,,
197,197,TN,TO,TON,776,Tonga,72,0.099361,9,61,-175.185,-21.202000000000000,,,,
198,198,TO,TG,TGO,768,Togo,5439,6.2385720000000000,2,11,1.081,8.799,Togo,TGO,2015.0,3.768301964
199,199,TP,ST,STP,678,Sao Tome and Principe,96,0.152622,2,17,6.629,0.201,,,,
200,200,TS,TN,TUN,788,Tunisia,15536,10.104685,2,15,9.596,35.383,Tunisia,TUN,2015.0,5.131611824
201,201,TU,TR,TUR,792,Turkey,76963,72.969723,142,145,35.179,39.061,Turkey,TUR,2015.0,5.514465332
202,202,TV,TV,TUV,798,Tuvalu,3,0.010441000000000000,9,61,179.21900000000000,-8.514,,,,
203,203,TX,TM,TKM,795,Turkmenistan,46993,4.833266,142,143,59.38400000000000,39.122,Turkmenistan,TKM,2015.0,5.791460037
204,204,TZ,TZ,TZA,834,United Republic of Tanzania,88359,38.477873000000000,2,14,34.823,-6.27,Tanzania,TZA,2015.0,3.660597324
205,205,UG,UG,UGA,800,Uganda,19710,28.947181,2,14,32.386000000000000,1.28,Uganda,UGA,2015.0,4.237686634
206,206,UK,GB,GBR,826,United Kingdom,24193,60.244834,150,154,-1.6,53.0,United Kingdom,GBR,2015.0,6.515445232
207,207,UP,UA,UKR,804,Ukraine,57935,46.917544,150,151,31.388,49.016000000000000,Ukraine,UKR,2015.0,3.9645428660000000
208,208,US,US,USA,840,United States,915896,299.846449,19,21,-98.60600000000000,39.622,United States,USA,2015.0,6.863946915
209,209,UV,BF,BFA,854,Burkina Faso,27360,13.933363,2,11,-1.74,12.278000000000000,Burkina Faso,BFA,2015.0,4.418930054
210,210,UY,UY,URY,858,Uruguay,17502,3.3257270000000000,19,5,-56.012,-32.8,Uruguay,URY,2015.0,6.628080368000000
211,211,UZ,UZ,UZB,860,Uzbekistan,42540,26.593123,142,143,63.17,41.75,Uzbekistan,UZB,2015.0,5.972364426
212,212,VC,VC,VCT,670,Saint Vincent and the Grenadines,39,0.11913700000000000,19,29,-61.194000000000000,13.248,,,,
213,213,VE,VE,VEN,862,Venezuela,88205,26.725573000000000,19,5,-66.166,7.125,Venezuela,VEN,2015.0,5.568800449000000
214,214,VI,VG,VGB,92,British Virgin Islands,15,0.022016,19,29,-64.39,18.483,,,,
215,215,VM,VN,VNM,704,Viet Nam,32549,85.028643,142,35,105.314,21.491,Vietnam,VNM,2015.0,5.076315403
216,216,VQ,VI,VIR,850,United States Virgin Islands,35,0.111408,19,29,-64.785,17.741,,,,
217,217,WA,,NAM,516,Namibia,82329,2.019677,2,18,17.218,-22.133000000000000,,,,
218,218,WF,WF,WLF,876,Wallis and Futuna Islands,14,0.015079000000000000,9,61,-178.13100000000000,-14.289000000000000,,,,
219,219,WS,WS,WSM,882,Samoa,283,0.183845,9,61,-172.41400000000000,-13.652000000000000,,,,
220,220,WZ,SZ,SWZ,748,Swaziland,1720,1.1245290000000000,2,18,31.497,-26.562000000000000,,,,
221,221,YM,YE,YEM,887,Yemen,52797,21.095679,142,145,48.355,15.807,Yemen,YEM,2015.0,2.982673883
222,222,ZA,ZM,ZMB,894,Zambia,74339,11.478317,2,14,26.32,-14.614,Zambia,ZMB,2015.0,4.843164444
223,223,ZI,ZW,ZWE,716,Zimbabwe,38685,13.119679000000000,2,14,29.872,-19.0,Zimbabwe,ZWE,2015.0,3.70319128
224,224,ID,ID,IDN,360,Indonesia,181157,226.063044,142,35,114.25200000000000,-0.976,Indonesia,IDN,2015.0,5.04279995
225,225,GP,GP,GLP,312,Guadeloupe,169,0.438403,19,29,-61.441,16.286000000000000,,,,
226,226,NT,AN,ANT,530,Netherlands Antilles,80,0.186392,19,29,-68.87,12.123,,,,
227,227,AE,AE,ARE,784,United Arab Emirates,8360,4.104291,142,145,54.163000000000000,23.549,United Arab Emirates,ARE,2015.0,6.568397522000000
228,228,TT,TL,TLS,626,Timor-Leste,1487,1.067285,142,35,125.87800000000000,-8.822000000000000,,,,
229,229,PC,PN,PCN,612,Pitcairn Islands,0,5e-06,9,61,-128.316,-24.366,,,,
230,230,PS,PW,PLW,585,Palau,0,0.020127000000000000,9,57,134.57,7.501,,,,
231,231,RM,MH,MHL,584,Marshall Islands,0,0.005672,9,57,168.963,7.595,,,,
232,232,SB,PM,SPM,666,Saint Pierre and Miquelon,0,0.006346,19,21,-56.325,47.042,,,,
233,233,SH,SH,SHN,654,Saint Helena,0,0.006399,2,11,-5.71,-15.953,,,,
234,234,SM,SM,SMR,674,San Marino,0,0.030214000000000000,150,39,12.46,43.942,,,,
235,235,TK,TC,TCA,796,Turks and Caicos Islands,0,0.024459,19,29,-71.95,21.902000000000000,,,,
236,236,WI,EH,ESH,732,Western Sahara,0,0.440428,2,15,-13.706,24.554000000000000,,,,
237,237,RB,RS,SRB,688,Serbia,0,9.863026,150,39,20.806000000000000,44.032,Serbia,SRB,2015.0,5.317685127
238,238,VT,VA,VAT,336,Holy See (Vatican City),0,0.0007830000000000000,150,39,12.451000000000000,41.904000000000000,,,,
239,239,SV,SJ,SJM,744,Svalbard,0,,150,154,18.374000000000000,78.83,,,,
240,240,RN,MF,MAF,663,Saint Martin,0,,19,29,-63.041000000000000,18.094,,,,
241,241,TB,BL,BLM,652,Saint Barthelemy,0,,19,29,-63.043,18.04,,,,
242,242,GK,GG,GGY,831,Guernsey,0,,150,154,-2.576,49.459000000000000,,,,
243,243,JE,JE,JEY,832,Jersey,0,,150,154,-2.129,49.219000000000000,,,,
244,244,SX,GS,SGS,239,South Georgia South Sandwich Islands,0,,0,0,-36.891,-54.209000000000000,,,,
245,245,TW,TW,TWN,158,Taiwan,0,,0,0,120.946,23.754,Taiwan(China),TWN,2015.0,6.450088024000000